{
  "goal": {
    "name": "浄護院",
    "lat": 35.0211342,
    "lng": 135.7683661,
    "description": "本尊は火の神、竈神として祀られる三宝荒神尊で、「火の用心」「災難除け」にご利益があるとして人々の信仰を集めています。",
    "relation": "織田信長"
  },
  "hints": [
    {
      "name": "志賀越道",
      "lat": 35.025296,
      "lng": 135.778782,
      "description": "志賀越道の終着点である「荒神口」は、「浄護院」の別名「清荒神(きよしこうじん)に由来する。"
    },
    {
      "name": "子安観音像",
      "lat": 35.0290232,
      "lng": 135.786803534,
      "description": "洛中の荒神口から近江へと通じる街道筋(志賀越道)になる。また、出町から百万遍を経て、浄土寺へ向かう細道もこの地で交差していた。"
    },
    {
      "name": "北白川西町道標",
      "lat": 35.0286993,
      "lng": 135.781116,
      "description": "滋賀と浄護院を結ぶ滋賀越道の脇に佇む石仏で、滋賀から京都への道標の役割を果たしていた。"
    },
    {
      "name": "荒神橋",
      "lat": 35.0215503,
      "lng": 135.7707485,
      "description": "かつての荒神口に現在かかるのが荒神橋であり、橋名は荒神口に由来する。"
    }
  ]
}
